{"id": "live_parallel_4-1-0", "actual_calls": [["get_current_weather", {"location": "Boston, USA", "url": "https://api.open-meteo.com/v1/forecast?latitude=42.3601&longitude=-71.0589"}], ["get_current_weather", {"location": "San Francisco, USA", "url": "https://api.open-meteo.com/v1/forecast?latitude=37.7749&longitude=-122.4194"}], ["get_current_weather", {"location": "New York, USA", "url": "https://api.open-meteo.com/v1/forecast?latitude=40.7128&longitude=-74.0060"}], ["get_current_weather", {"location": "Los Angeles, USA", "url": "https://api.open-meteo.com/v1/forecast?latitude=34.0522&longitude=-118.2437"}], ["get_current_weather", {"location": "Chicago, USA", "url": "https://api.open-meteo.com/v1/forecast?latitude=41.8781&longitude=-87.6298"}], ["get_current_weather", {"location": "Houston, USA", "url": "https://api.open-meteo.com/v1/forecast?latitude=29.7604&longitude=-95.3698"}]], "wall_s": 4.887582875031512, "prompt_tokens": 13048, "completion_tokens": 850, "error": "", "n_turns": 12, "n_tool_calls_total": 12, "n_schema_rejects": 0, "passed": false, "reason": "emitted_6_calls_expected_2"}